{
  "type": "FeatureCollection",
  "features": [
    {
      "type": "Feature",
      "geometry": {
        "type": "Point",
        "coordinates": [
          -119.885177,
          47.239350,
          427.1
        ]
      },
      "properties": {
        "station_name": "Quincy",
        "provider_name": "Azure",
        "frequency_bands": ["S", "X"]
      }
    },
    {
      "type": "Feature",
      "geometry": {
        "type": "Point",
        "coordinates": [
          -71.400803,
          -33.955606,
          413.9
        ]
      },
      "properties": {
        "station_name": "Longovilo",
        "provider_name": "Azure",
        "frequency_bands": ["S", "X"]
      }
    },
    {
      "type": "Feature",
      "geometry": {
        "type": "Point",
        "coordinates": [
          103.853018,
          1.282241,
          9.2
        ]
      },
      "properties": {
        "station_name": "Singapore",
        "provider_name": "Azure",
        "frequency_bands": ["S", "X"]
      }
    },
    {
      "type": "Feature",
      "geometry": {
        "type": "Point",
        "coordinates": [
          28.198312,
          -26.137950,
          1443.7
        ]
      },
      "properties": {
        "station_name": "Johannesburg",
        "provider_name": "Azure",
        "frequency_bands": ["S", "X"]
      }
    },
    {
      "type": "Feature",
      "geometry": {
        "type": "Point",
        "coordinates": [
          17.135469,
          60.628830,
          55.0
        ]
      },
      "properties": {
        "station_name": "Gavle",
        "provider_name": "Azure",
        "frequency_bands": ["S", "X"]
      }
    }
  ]
}