{
  "type": "FeatureCollection",
  "features": [
    {
      "type": "Feature",
      "geometry": {
        "type": "Point",
        "coordinates": [
          168.37,
          -46.52
        ]
      },
      "properties": {
        "name": "Awarua",
        "provider": "Leaf Space",
        "frequency_bands": ["S", "X", "Ka"]
      }
    },
    {
      "type": "Feature",
      "geometry": {
        "type": "Point",
        "coordinates": [
          138.85,
          -32.96
        ]
      },
      "properties": {
        "name": "Peterborough",
        "provider": "Leaf Space",
        "frequency_bands": ["S", "X"]
      }
    },
    {
      "type": "Feature",
      "geometry": {
        "type": "Point",
        "coordinates": [
          115.34,
          -29.01
        ]
      },
      "properties": {
        "name": "Nangetty",
        "provider": "Leaf Space",
        "frequency_bands": ["S", "X"]
      }
    },
    {
      "type": "Feature",
      "geometry": {
        "type": "Point",
        "coordinates": [
          80.72,
          7.27
        ]
      },
      "properties": {
        "name": "Kandy",
        "provider": "Leaf Space",
        "frequency_bands": ["S", "X"]
      }
    },
    {
      "type": "Feature",
      "geometry": {
        "type": "Point",
        "coordinates": [
          49.49,
          40.47
        ]
      },
      "properties": {
        "name": "Absheron",
        "provider": "Leaf Space",
        "frequency_bands": ["S", "X"]
      }
    },
    {
      "type": "Feature",
      "geometry": {
        "type": "Point",
        "coordinates": [
          9.04,
          45.70
        ]
      },
      "properties": {
        "name": "Lomazzo",
        "provider": "Leaf Space",
        "frequency_bands": ["UHF"]
      }
    },
    {
      "type": "Feature",
      "geometry": {
        "type": "Point",
        "coordinates": [
          -0.86,
          60.75
        ]
      },
      "properties": {
        "name": "UNST",
        "provider": "Leaf Space",
        "frequency_bands": ["UHF","S", "X"]
      }
    },
    {
      "type": "Feature",
      "geometry": {
        "type": "Point",
        "coordinates": [
          -4.16,
          38.67
        ]
      },
      "properties": {
        "name": "Puertollano",
        "provider": "Leaf Space",
        "frequency_bands": ["UHF", "S"]
      }
    },
    {
      "type": "Feature",
      "geometry": {
        "type": "Point",
        "coordinates": [
          -20.25,
          65.65
        ]
      },
      "properties": {
        "name": "Blonduos",
        "provider": "Leaf Space",
        "frequency_bands": ["S", "X", "Ka"]
      }
    },
    {
      "type": "Feature",
      "geometry": {
        "type": "Point",
        "coordinates": [
          -25.14,
          37.00
        ]
      },
      "properties": {
        "name": "Santa Maria",
        "provider": "Leaf Space",
        "frequency_bands": ["UHF","S", "X"]
      }
    },
    {
      "type": "Feature",
      "geometry": {
        "type": "Point",
        "coordinates": [
          27.15,
          43.31
        ]
      },
      "properties": {
        "name": "Kaspichan",
        "provider": "Leaf Space",
        "frequency_bands": ["UHF", "S"]
      }
    },
    {
      "type": "Feature",
      "geometry": {
        "type": "Point",
        "coordinates": [
          23.44,
          42.48
        ]
      },
      "properties": {
        "name": "Plana",
        "provider": "Leaf Space",
        "frequency_bands": ["S", "X"]
      }
    },
    {
      "type": "Feature",
      "geometry": {
        "type": "Point",
        "coordinates": [
          -70.91,
          -53.16
        ]
      },
      "properties": {
        "name": "Punta Arenas",
        "provider": "Leaf Space",
        "frequency_bands": ["S", "X", "Ka"]
      }
    },
    {
      "type": "Feature",
      "geometry": {
        "type": "Point",
        "coordinates": [
          9.36,
          45.49
        ]
      },
      "properties": {
        "name": "Vimercate",
        "provider": "Leaf Space",
        "frequency_bands": ["UHF", "S"]
      }
    },
    {
      "type": "Feature",
      "geometry": {
        "type": "Point",
        "coordinates": [
          126.53,
          33.49
        ]
      },
      "properties": {
        "name": "Jeju City",
        "provider": "Leaf Space",
        "frequency_bands": ["S", "X"]
      }
    },
    {
      "type": "Feature",
      "geometry": {
        "type": "Point",
        "coordinates": [
          57.68,
          -20.14
        ]
      },
      "properties": {
        "name": "Mon Loisir",
        "provider": "Leaf Space",
        "frequency_bands": ["S", "X"]
      }
    },
    {
      "type": "Feature",
      "geometry": {
        "type": "Point",
        "coordinates": [
          -110.31,
          24.14
        ]
      },
      "properties": {
        "name": "La Paz",
        "provider": "Leaf Space",
        "frequency_bands": ["S", "X"]
      }
    },
    {
      "type": "Feature",
      "geometry": {
        "type": "Point",
        "coordinates": [
          168.37,
          -46.52
        ]
      },
      "properties": {
        "name": "Awarua",
        "provider": "Leaf Space",
        "frequency_bands": ["S", "X", "Ka"]
      }
    },
    {
      "type": "Feature",
      "geometry": {
        "type": "Point",
        "coordinates": [
          27.71,
          -25.89
        ]
      },
      "properties": {
        "name": "Pretoria",
        "provider": "Leaf Space",
        "frequency_bands": ["S", "X"]
      }
    }
  ]
}